{"26800022":{"title":"Minaret Tower","copyright":"© 2020 Matthew Hsu","location":"Koutoubia Mosque","state":"Marrakesh","country":"Morocco","src":"/personal-site-pilot/static/7ff70d029db361cbbaa9f4c732387c51/0c4fc/26800022.jpg","camera":"Nikon F3","film":"Ultramax 400"},"26800038":{"title":"When the Sun Sets","copyright":"© 2020 Matthew Hsu","city":"Zagora","country":"Morocco","src":"/personal-site-pilot/static/ba93334119dd52b2431459b10802c65a/80f23/26800038.jpg","camera":"Nikon F3","film":"Ultramax 400"},"32050005":{"title":"R&R","copyright":"© 2019 Matthew Hsu","city":"Bath","state":"Somerset","country":"UK","src":"/personal-site-pilot/static/21fc54b52a597945b798ea730d57fce4/80f23/32050005.jpg","camera":"Nikon F3","film":"Ultramax 400"},"32050011":{"title":"Amalfi Summer","copyright":"© 2019 Matthew Hsu","city":"Amalfi","country":"Italy","src":"/personal-site-pilot/static/ce479dc0dfb2d93c79708dcf47b7a674/80f23/32050011.jpg","camera":"Nikon F3","film":"Ultramax 400"},"32050033":{"title":"Via Krupp","location":"Via Krupp","city":"Capri","country":"Italy","src":"/personal-site-pilot/static/d6afe2b0695c2e1f9dbc3fc9a0e422f7/0c4fc/32050033.jpg","camera":"Nikon F3","film":"Ultramax 400"},"32070019":{"title":"Standing Still","location":"Holyrood Park","city":"Edinburgh","country":"Scotland","src":"/personal-site-pilot/static/12085609e3558982206c310ed8485621/80f23/32070019.jpg","camera":"Nikon F3","film":"Delta 400"},"32070027":{"title":"Brighton Pier","copyright":"© 2019 Matthew Hsu","city":"Brighton","country":"UK","src":"/personal-site-pilot/static/e22334e0cfb8a639cc78f0cf9873607c/80f23/32070027.jpg","camera":"Nikon F3","film":"Delta 400"},"32070031":{"title":"Window to the Past","copyright":"© 2019 Matthew Hsu","location":"St. Dunstan-in-the-East","city":"London","country":"UK","src":"/personal-site-pilot/static/0b04bbc9489067d141fb7e0786f0fe9f/0c4fc/32070031.jpg","camera":"Nikon F3","film":"Delta 400"},"41870007":{"copyright":"© 2020 Matthew Hsu","src":"/personal-site-pilot/static/f243c9d67b98a7ed33c7b4b9c23494d6/80f23/41870007.jpg","camera":"Nikon F3","film":"Color Plus 200"},"41870008":{"title":"Summer Color","copyright":"© 2019 Matthew Hsu","city":"Whitstable","country":"UK","src":"/personal-site-pilot/static/1364e45c11074a26094d6e989ecb1604/58532/41870008.jpg","camera":"Nikon F3","film":"Color Plus 200"},"41870019":{"title":"Portside","copyright":"© 2019 Matthew Hsu","location":"Whitstable Harbour","country":"UK","src":"/personal-site-pilot/static/3b96b7e73f875a088b6ada4578850c3e/80f23/41870019.jpg","camera":"Nikon F3","film":"Color Plus 200"},"41870030":{"title":"Standing Stones","copyright":"© 2019 Matthew Hsu","location":"Stonehenge","country":"UK","src":"/personal-site-pilot/static/62c4535bf2b76c352f65fcae9c7612c1/80f23/41870030.jpg","camera":"Nikon F3","film":"Color Plus 200"},"41870031":{"copyright":"© 2020 Matthew Hsu","src":"/personal-site-pilot/static/fb81dd4c30168b8ddda4d65c32a01e1c/80f23/41870031.jpg","camera":"Nikon F3","film":"Color Plus 200"},"41870035":{"title":"Golden Days","copyright":"© 2019 Matthew Hsu","location":"Salisbury Plain","country":"UK","src":"/personal-site-pilot/static/4b072819497b1fa953fae894721d5047/80f23/41870035.jpg","camera":"Nikon F3","film":"Color Plus 200"},"47530002":{"title":"Funicular","copyright":"© 2019 Matthew Hsu","city":"Luxembourg","country":"Luxembourg","src":"/personal-site-pilot/static/9be3ff16deb2086ac3bc8143300187f5/80f23/47530002.jpg","camera":"Nikon F3","film":"Superia 400"},"47530016":{"title":"Dunas de Maspalomas","copyright":"© 2020 Matthew Hsu","location":"Dunas de Maspalomas","state":"Gran Caneria","country":"Spain","src":"/personal-site-pilot/static/fcd35e170b1961320651fae6de555e69/80f23/47530016.jpg","camera":"Nikon F3","film":"Superia 400"},"47530030":{"title":"String Lights","copyright":"© 2020 Matthew Hsu","city":"London","country":"United Kingdom","src":"/personal-site-pilot/static/6a2d12b295146884d679fdc517e991cb/a5e77/47530030.jpg","camera":"Nikon F3","film":"Superia 400"},"61580007":{"title":"Little City","copyright":"© 2018 Matthew Hsu","city":"San Francisco","state":"California","country":"USA","src":"/personal-site-pilot/static/f99708857d8e311f53e0a8bd45705404/80f23/61580007.jpg"},"61600009":{"title":"The Foundation of Memory","copyright":"© 2018 Matthew Hsu","location":"Sequoia National Park","state":"California","country":"USA","src":"/personal-site-pilot/static/0116708c3422089fe4404e11e28748d3/80f23/61600009.jpg","camera":"Nikon F3","film":"Portra 400"},"61600014":{"title":"Waves of Grain","copyright":"© 2018 Matthew Hsu","location":"Death Valley National Park","state":"California","country":"USA","src":"/personal-site-pilot/static/b16a5b76baa13437d09b18e391af212e/7f5b2/61600014.jpg","camera":"Nikon F3","film":"Portra 400"},"61610010":{"title":"A Silent Stance","copyright":"© 2018 Matthew Hsu","city":"San Francisco","state":"California","country":"USA","src":"/personal-site-pilot/static/f62642c5a7979235520815d1c0c27325/80f23/61610010.jpg","camera":"Nikon F3","film":"Kodak Gold 200"},"61620006":{"title":"Newfound Nostalgia","copyright":"© 2020 Matthew Hsu","city":"San Francisco","state":"California","country":"USA","src":"/personal-site-pilot/static/1bfc39b6292264b89bd657623b942cdb/80f23/61620006.jpg","camera":"Nikon F3","film":"Kodak Gold 200"},"61620023":{"title":"Lantern Streets","copyright":"© 2018Matthew Hsu","city":"San Francisco","state":"California","country":"USA","src":"/personal-site-pilot/static/9e956e760fdc523fbdc56b5fdf165921/80f23/61620023.jpg","camera":"Nikon F3","film":"Kodak Gold 200"},"IMG_20180824_000222_384":{"title":"Canopy of Green","copyright":"© 2018 Matthew Hsu","src":"/personal-site-pilot/static/449873b996eeaf0c1dc84c2091344361/dca3b/IMG_20180824_000222_384.jpg","camera":"Nikon F3"},"04380010":{"title":"Twin Peaks","copyright":"© 2019 Matthew Hsu","location":"Twin Peaks","city":"San Francisco","state":"CA","country":"USA","src":"/personal-site-pilot/static/db1c54e27ce7c40332dafa756827a28c/80f23/04380010.jpg","camera":"Nikon F3","film":"Provia 100F"},"04380011":{"title":"Edge of Tomorrow","copyright":"© 2018 Matthew Hsu","location":"Mount Davidson","city":"San Francisco","state":"California","country":"USA","src":"/personal-site-pilot/static/faef4fada9fd315c8b8ff0bbf2b8d8d3/80f23/04380011.jpg","camera":"Nikon F3","film":"Provia 100F"},"000098720035":{"title":"Rock Bottom","copyright":"© 2018 Matthew Hsu","location":"Hoover Dam","src":"/personal-site-pilot/static/09b4bd822bc20d2ddf0b70e7c7f51f97/ea1bc/000098720035.jpg","camera":"Nikon F3","film":"Portra 400"},"000094240013-01":{"title":"Night Time Fun","copyright":"© 2018 Matthew Hsu","city":"Colorado Springs","state":"Colorado","country":"USA","src":"/personal-site-pilot/static/eddcd7fdafea6a2b2f02eb7bef5beae8/b1020/000094240013-01.jpg","camera":"Nikon F3","film":"Portra 400"},"000094240032-01":{"title":"Time Gone By","copyright":"© 2018 Matthew Hsu","state":"New Mexico","country":"USA","src":"/personal-site-pilot/static/5bbf8ef2278a35c70121a99d20ee6cc8/609cb/000094240032-01.jpg","camera":"Nikon F3","film":"Portra 400"},"000022450018":{"title":"Onwards","location":"Lake Bled","country":"Slovenia","src":"/personal-site-pilot/static/04fd5c56cdf66591ffb65fb3568ea9fe/efe5d/000022450018.jpg"},"000098720030":{"title":"Electric Nights","copyright":"© 2018 Matthew Hsu","city":"Las Vegas","state":"Nevada","country":"USA","src":"/personal-site-pilot/static/7ad499c48a1ad163e364c284ec4bbe25/0fba2/000098720030.jpg","camera":"Nikon F3","film":"Portra 400"},"000040210023":{"title":"The Fertile Valley","copyright":"© 2018 Matthew Hsu","location":"Angel Island","state":"California","country":"USA","src":"/personal-site-pilot/static/633a562cad7e7a924b7ecc6081e6c09e/4c68a/000040210023.jpg","camera":"Nikon F3","film":"Portra 400"},"000047860034":{"title":"Lazy Sundays in the Sun","copyright":"© 2019 Matthew Hsu","location":"Pier 39","city":"San Francisco","state":"California","country":"USA","src":"/personal-site-pilot/static/163f07bf1720c8a241d2244943662720/0fba2/000047860034.jpg","camera":"Nikon F3","film":"Ektar 100"},"000094230012-01":{"src":"/personal-site-pilot/static/8d78b28b9a72b01658b2bc2c7a3520de/0fba2/000094230012-01.jpg","camera":"Nikon F3","film":"Portra 400"},"000047860023":{"title":"Potrero","copyright":"© 2019 Matthew Hsu","city":"San Francisco","state":"California","country":"USA","src":"/personal-site-pilot/static/754110bd4ceba9e3fe360a8f9a2f2755/0fba2/000047860023.jpg","camera":"Nikon F3","film":"Ektar 100"},"000047860027":{"title":"Streetside Stage","copyright":"© 2019 Matthew Hsu","city":"San Francisco","state":"California","country":"USA","src":"/personal-site-pilot/static/1109736149a168397f3552e141a0ee04/0fba2/000047860027.jpg","camera":"Nikon F3","film":"Ektar 100"},"IMG_20180824_150918_531":{"title":"Are We There Yet?","copyright":"© 2018 Matthew Hsu","location":"White Sands National Monument","state":"New Mexico","country":"USA","src":"/personal-site-pilot/static/037257be72da7d4ce3cbc5322343f97a/0fba2/IMG_20180824_150918_531.jpg","camera":"Nikon F3","film":"Portra 400"},"000047860014":{"title":"Civil Twilight","copyright":"© 2019 Matthew Hsu","city":"San Francisco","state":"California","country":"USA","src":"/personal-site-pilot/static/ac07ced258041ab5ef4beb9b8a57d56a/51dac/000047860014.jpg","camera":"Nikon F3","film":"Ektar 100"},"IMG_20180825_082318_454":{"city":"Colorado Springs","state":"Colorado","country":"USA","src":"/personal-site-pilot/static/5f3bff22b76de5343a73fd52a69e4d9a/0fba2/IMG_20180825_082318_454.jpg","camera":"Nikon F3","film":"Portra 400"},"000009850012":{"title":"Ruminations","copyright":"© 2018 Matthew Hsu","src":"/personal-site-pilot/static/80acadec01d227efbadd4bb33310d7ff/8342f/000009850012.jpg","camera":"Nikon F3","film":"Portra 400"},"000031400017":{"title":"Loch Ness","copyright":"© 2019 Matthew Hsu","location":"Loch Ness","country":"Scotland","src":"/personal-site-pilot/static/8cb59ac70f8a3cce739d1bd4eb61e227/0fba2/000031400017.jpg","camera":"Nikon F3","film":"Ektar 100"},"000040210020":{"copyright":"© 2020 Matthew Hsu","src":"/personal-site-pilot/static/3f3515c0eb7c6d4234f41b1164b54bed/0fba2/000040210020.jpg","camera":"Nikon F3","film":"Portra 400"},"000040210028":{"title":"A March Through Mist","copyright":"© 2019 Matthew Hsu","location":"Cataract Falls","state":"California","country":"USA","src":"/personal-site-pilot/static/9b6299c4b438823c992ece20b9ef056a/0fba2/000040210028.jpg","camera":"Nikon F3","film":"Portra 400"},"000094240009-01":{"title":"Jagged Peaks and Rugged Horizons","copyright":"© Matthew Hsu","location":"Garden of the Gods Park","city":"Colorado Springs","state":"Colorado","country":"USA","src":"/personal-site-pilot/static/7c03e1f0f5e902c6fb8563d3da6a57df/0fba2/000094240009-01.jpg","camera":"Nikon F3","film":"Portra 400"},"000094240028-01":{"title":"The Long Road Home","copyright":"© 2018 Matthew Hsu","state":"New Mexico","country":"USA","src":"/personal-site-pilot/static/a8ac1ee5b387d4871e03c2c3eed72cc4/0fba2/000094240028-01.jpg","camera":"Nikon F3","film":"Portra 400"},"000094230021-01":{"title":"Contour Lines","copyright":"© 2018 Matthew Hsu","location":"White Sands National Monument","state":"New Mexico","country":"USA","src":"/personal-site-pilot/static/516659a0d5d7a893bdec635d8e248eb3/0fba2/000094230021-01.jpg","camera":"Nikon F3","film":"Portra 400"},"000012990028":{"title":"Work in Progress","copyright":"© 2019 Matthew Hsu","location":"White Cliffs of Dover","city":"Dover","country":"UK","src":"/personal-site-pilot/static/56d876d7f1182c71d1c7a80d7be7608a/0fba2/000012990028.jpg","camera":"Nikon F3","film":"Color Plus 200"},"000094240016-01":{"title":"Rural Power Delivery","copyright":"© 2018 Matthew Hsu","src":"/personal-site-pilot/static/6cedb2efaeca6fe717f33d979629535f/0fba2/000094240016-01.jpg","camera":"Nikon F3","film":"Portra 400"},"000047860002":{"copyright":"© 2020 Matthew Hsu","src":"/personal-site-pilot/static/9ce020322664df879578322ac46c14da/0fba2/000047860002.jpg","camera":"Nikon F3","film":"Ektar 100"},"000031390026":{"title":"Valley of Fog","copyright":"© 2019 Matthew Hsu","location":"Glen Coe","country":"Scotland","src":"/personal-site-pilot/static/5ddc1e067ef35561d59b9d18a69aa9d6/0fba2/000031390026.jpg","camera":"Nikon F3","film":"Ektar 100"},"000009850014":{"title":"A Carving Through Time","copyright":"© 2018 Matthew Hsu","location":"Marble Canyon","state":"Arizona","country":"USA","src":"/personal-site-pilot/static/6f26c3fc7619fc7ba306b24bd1fc5f39/0fba2/000009850014.jpg","camera":"Nikon F3","film":"Portra 400"},"000047860016":{"title":"Daily Standup","copyright":"© 2019 Matthew Hsu","city":"San Francisco","state":"California","country":"USA","src":"/personal-site-pilot/static/011a897ef7d67e79503cbffd9843f17f/48529/000047860016.jpg","camera":"Nikon F3","film":"Ektar 100"},"000047860017":{"title":"Sutro Sightings","copyright":"© 2018 Matthew Hsu","city":"San Francisco","state":"California","country":"USA","src":"/personal-site-pilot/static/47f0d7b67e59ba20167a6c8e5068951d/0fba2/000047860017.jpg","camera":"Nikon F3","film":"Ektar 100"},"000009850020":{"title":"Paths Unknown","copyright":"© 2018 Matthew Hsu","location":"North Rim of the Grand Canyon","state":"Arizona","country":"USA","src":"/personal-site-pilot/static/191463da4e8f18e14b16663feb36f876/c5cbe/000009850020.jpg","camera":"Nikon F3","film":"Portra 400"},"000031400035":{"title":"Skyward","copyright":"© 2019 Matthew Hsu","country":"Scotland","src":"/personal-site-pilot/static/6e12c550e31e55097f206f0e541e7b36/0fba2/000031400035.jpg","camera":"Nikon F3","film":"Ektar 100"},"000098720007":{"title":"Cliffside Foliage","copyright":"© 2018 Matthew Hsu","location":"Zion National Park","state":"Utah","country":"USA","src":"/personal-site-pilot/static/5cb44eeaaf491305f44b4343c795d424/0fba2/000098720007.jpg","camera":"Nikon F3","film":"Portra 400"},"000031400034":{"title":"Lonesomeness","copyright":"© 2019 Matthew Hsu","country":"Scotland","src":"/personal-site-pilot/static/ae48246cb716df4c7a78a1d0d4a91d17/0fba2/000031400034.jpg","camera":"Nikon F3","film":"Ektar 100"},"000040210003":{"title":"Sea of Gray","copyright":"© 2018 Matthew Hsu","state":"California","country":"USA","src":"/personal-site-pilot/static/1be31193656f2111b7cdc4ca95e2aa76/0fba2/000040210003.jpg","camera":"Nikon F3","film":"Portra 400"},"000047860009":{"title":"Where We Stand There's No Turning Back","copyright":"© 2019 Matthew Hsu","city":"San Francisco","state":"CA","country":"USA","src":"/personal-site-pilot/static/cca7721cf82a130792b1d4087a390895/0fba2/000047860009.jpg","camera":"Nikon F3","film":"Ektar 100"},"000012990003":{"title":"Internal Monologue","copyright":"© 2019 Matthew Hsu","location":"Brick Lane","city":"London","country":"UK","src":"/personal-site-pilot/static/df51e83661620346aec9d6c53c2ecf1a/0fba2/000012990003.jpg","camera":"Nikon F3","film":"Color Plus 200"},"000009850026":{"title":"Float On","copyright":"© 2018 Matthew Hsu","location":"Lake Powell","state":"Utah","country":"USA","src":"/personal-site-pilot/static/a56d8f9fa337200c3f4d23cff0b4cb99/0fba2/000009850026.jpg","camera":"Nikon F3","film":"Portra 400"},"000009850005":{"title":"Hunger Pangs","copyright":"© 2018 Matthew Hsu","location":"South Rim of the Grand Canyon","state":"Arizona","country":"USA","src":"/personal-site-pilot/static/a224bfa7ef7d3fa34d4617a5470f1ff3/0fba2/000009850005.jpg","camera":"Nikon F3","film":"Portra 400"},"000047860004":{"src":"/personal-site-pilot/static/25b9534e8b99b3399871e2411a9da01e/0fba2/000047860004.jpg","camera":"Nikon F3","film":"Ektar 100"},"000047860021":{"title":"The Physiology of Taste","copyright":"© 2018 Matthew Hsu","location":"Mission District","city":"San Francisco","state":"California","country":"USA","src":"/personal-site-pilot/static/cc1751954818aaac838132173a728aa7/0fba2/000047860021.jpg","camera":"Nikon F3","film":"Ektar 100"},"000098720004":{"title":"Observation Point","copyright":"© 2018 Matthew Hsu","location":"Zion National Park","state":"Utah","country":"USA","src":"/personal-site-pilot/static/6e3fed33a359faf0fe41a32a9ad2ceb1/0fba2/000098720004.jpg","camera":"Nikon F3","film":"Portra 400"},"000031390006":{"title":"Secrets of the Fog","copyright":"© 2019 Matthew Hsu","location":"Old Man of Storr","city":"Isle of Skye","country":"Scotland","src":"/personal-site-pilot/static/aa262ede86feb73ab9f553f8d995e3be/0fba2/000031390006.jpg","camera":"Nikon F3","film":"Ektar 100"},"000098720008":{"copyright":"© 2018 Matthew Hsu","location":"Zion National Park","state":"Utah","country":"USA","src":"/personal-site-pilot/static/acb1724a4d2231edd4225e8bd6b2ce0f/0fba2/000098720008.jpg","camera":"Nikon F3","film":"Portra 400"},"000098720011":{"title":"Rocky Starts","copyright":"© 2018 Matthew Hsu","location":"Zion National Park","state":"Utah","country":"USA","src":"/personal-site-pilot/static/52be8d018d8c610f4342d3f2f1daf825/0fba2/000098720011.jpg","camera":"Nikon F3","film":"Portra 400"},"000031390034":{"title":"Glen Coe","copyright":"© 2019 Matthew Hsu","location":"Glen Coe","country":"Scotland","src":"/personal-site-pilot/static/50fea0db96efb4a021fca89081c40974/0fba2/000031390034.jpg","camera":"Nikon F3","film":"Ektar 100"}}